{"data":[{"RestrntID":1,"Name":"Latino Bar and Grill","Address":"3430 S Arlington Rd","City":"Green","State":"OH","Zipcode":"44312","Phone":"3305634829","Website":"https://www.facebook.com/latinobarandgrill","Open":"N","OnlineOrders":"Y","OrderWebsite":"https://www.facebook.com/latinobarandgrill/app/701720909911837/","Delivery":"N","DeliveryWebsite":null,"DeliveryWebsite2":null,"DeliveryWebsite3":null,"CreatedBy":"doadmin@%","DateAdded":"2020-03-20T17:34:54.000Z","DateUpdated":"2020-04-04T00:49:32.000Z","UpdatedBy":"doadmin@%","Latitude":"40.977230","Longitude":"-81.493920"},{"RestrntID":2,"Name":"Kozmo's Grille","Address":"37 1st St SW","City":"Massillon","State":"OH","Zipcode":"44647","Phone":"3308328807","Website":"https://www.kozmosgrille.com/Home","Open":"Y","OnlineOrders":"N","OrderWebsite":null,"Delivery":"Y","DeliveryWebsite":"https://www.ubereats.com/akron/food-delivery/kozmos-grille-massillon/JUOeFOwtTiO-TZceEQUeAA","DeliveryWebsite2":null,"DeliveryWebsite3":null,"CreatedBy":"doadmin@%","DateAdded":"2020-03-25T17:57:56.000Z","DateUpdated":"2020-04-06T16:30:50.000Z","UpdatedBy":"doadmin@%","Latitude":"40.782770","Longitude":"-81.381940"},{"RestrntID":3,"Name":"Sakura Japanese Sushi & Hibachi","Address":"4272 Belden Village St NW","City":"Canton","State":"OH","Zipcode":"44718","Phone":"3304936888","Website":"https://www.sakurajapanesesushihibachi.com/","Open":"Y","OnlineOrders":"Y","OrderWebsite":"https://www.beyondmenu.com/","Delivery":"N","DeliveryWebsite":null,"DeliveryWebsite2":null,"DeliveryWebsite3":null,"CreatedBy":"doadmin@%","DateAdded":"2020-03-25T17:57:56.000Z","DateUpdated":"2020-04-06T16:32:42.000Z","UpdatedBy":"doadmin@%","Latitude":"40.855200","Longitude":"-81.428180"},{"RestrntID":4,"Name":"The Ramp","Address":"3719 S Main St","City":"Akron","State":"OH","Zipcode":"44319","Phone":"2346786370","Website":"https://www.therampatplx.com/","Open":"Y","OnlineOrders":"N","OrderWebsite":null,"Delivery":"N","DeliveryWebsite":null,"DeliveryWebsite2":null,"DeliveryWebsite3":null,"CreatedBy":"doadmin@%","DateAdded":"2020-03-25T17:57:56.000Z","DateUpdated":"2020-04-06T16:50:20.000Z","UpdatedBy":"doadmin@%","Latitude":"41.025780","Longitude":"-81.526790"},{"RestrntID":5,"Name":"Smoke the Burger Joint","Address":"15 Tommy Henrich Dr NW","City":"Massillon","State":"OH","Zipcode":"44647","Phone":"3308800815","Website":"https://smoketheburgerjoint.com/","Open":"Y","OnlineOrders":"Y","OrderWebsite":"https://smoketheburgerjoint.alohaorderonline.com/","Delivery":"Y","DeliveryWebsite":null,"DeliveryWebsite2":null,"DeliveryWebsite3":null,"CreatedBy":"doadmin@%","DateAdded":"2020-03-25T17:57:56.000Z","DateUpdated":"2020-04-06T16:50:20.000Z","UpdatedBy":"doadmin@%","Latitude":"40.796497","Longitude":"-81.527328"},{"RestrntID":6,"Name":"Bella Sera","Address":"248 Federal Ave NW","City":"Massillon","State":"OH","Zipcode":"44647","Phone":"3308804664","Website":"http://berarduccicatering.com/","Open":"Y","OnlineOrders":"N","OrderWebsite":null,"Delivery":"Y","DeliveryWebsite":"https://www.doordash.com/store/bella-sera-pizzeria-and-ristorante-massillon-588401/en-US","DeliveryWebsite2":null,"DeliveryWebsite3":null,"CreatedBy":"doadmin@%","DateAdded":"2020-03-25T17:57:56.000Z","DateUpdated":"2020-04-06T16:53:41.000Z","UpdatedBy":"doadmin@%","Latitude":"40.796478","Longitude":"-81.526583"},{"RestrntID":7,"Name":"The Dragonfly Tea Room & Gift Shop","Address":"215 Market Street W","City":"Canal Fulton","State":"OH","Zipcode":"44614","Phone":"3308544832","Website":"http://www.dragonflytearoom.com/","Open":"Y","OnlineOrders":"Y","OrderWebsite":"https://squareup.com/store/DragonflyTeaRoom/","Delivery":"N","DeliveryWebsite":null,"DeliveryWebsite2":null,"DeliveryWebsite3":null,"CreatedBy":"doadmin@%","DateAdded":"2020-03-26T18:47:48.000Z","DateUpdated":"2020-04-06T16:53:41.000Z","UpdatedBy":"doadmin@%","Latitude":"40.889476","Longitude":"-81.600328"},{"RestrntID":8,"Name":"Don Panchos Tex Mex Cafe","Address":"2105 W State St","City":"Alliance","State":"OH","Zipcode":"44601","Phone":"3308234390","Website":"http://www.donpanchostexmexcafe.com/?fbclid=IwAR0_bK1d1uGo-jPgeUB8WzMofLI2ZxpVAJ0vqJY7ZyY0wLQ41HD6WfRLMZo","Open":"Y","OnlineOrders":"Y","OrderWebsite":"https://www.doordash.com/store/don-pancho-s-tex-mex-cafe-alliance-556478/753740/en-US","Delivery":"Y","DeliveryWebsite":"https://www.doordash.com/store/don-pancho-s-tex-mex-cafe-alliance-556478/en-US","DeliveryWebsite2":null,"DeliveryWebsite3":null,"CreatedBy":"doadmin@%","DateAdded":"2020-03-26T18:47:48.000Z","DateUpdated":"2020-04-06T16:55:34.000Z","UpdatedBy":"doadmin@%","Latitude":"40.901909","Longitude":"-81.139938"},{"RestrntID":9,"Name":"Miller-Doan Tavern","Address":"122 Cherry Street E.","City":"Canal Fulton","State":"OH","Zipcode":"44614","Phone":"3309700638","Website":"https://www.millerdoantavern.com/","Open":"Y","OnlineOrders":"N","OrderWebsite":null,"Delivery":"N","DeliveryWebsite":null,"DeliveryWebsite2":null,"DeliveryWebsite3":null,"CreatedBy":"doadmin@%","DateAdded":"2020-03-26T18:47:48.000Z","DateUpdated":"2020-04-06T17:02:14.000Z","UpdatedBy":"doadmin@%","Latitude":"40.887798","Longitude":"-81.600525"},{"RestrntID":10,"Name":"Oshers Dairy and Deli","Address":"102 N. Canal Street","City":"Canal Fulton","State":"OH","Zipcode":"44614","Phone":"3308543892","Website":"https://www.osersdairyanddeli.com/","Open":"Y","OnlineOrders":"N","OrderWebsite":null,"Delivery":"N","DeliveryWebsite":null,"DeliveryWebsite2":null,"DeliveryWebsite3":null,"CreatedBy":"doadmin@%","DateAdded":"2020-03-26T18:47:48.000Z","DateUpdated":"2020-04-06T17:02:14.000Z","UpdatedBy":"doadmin@%","Latitude":"40.890591","Longitude":"-81.599045"},{"RestrntID":11,"Name":"Peace Love & Little Donuts of Canal Fulton","Address":"2378 Locust St S","City":"Canal Fulton","State":"OH","Zipcode":"44614","Phone":"3309709130","Website":"https://www.peaceloveandlittledonuts.com/locations/canal-fulton","Open":"Y","OnlineOrders":"Y","OrderWebsite":"https://ordering.app/peaceloveandlittledonuts/","Delivery":"N","DeliveryWebsite":"","DeliveryWebsite2":null,"DeliveryWebsite3":null,"CreatedBy":"doadmin@%","DateAdded":"2020-03-26T18:47:48.000Z","DateUpdated":"2020-04-06T17:06:20.000Z","UpdatedBy":"doadmin@%","Latitude":"40.882027","Longitude":"-81.563293"},{"RestrntID":12,"Name":"Sisters Century House Restaurant","Address":"123 South Canal Street","City":"Canal Fulton","State":"OH","Zipcode":"44614","Phone":"3308549914","Website":"http://www.canalfultoncenturyhouse.com","Open":"Y","OnlineOrders":"N","OrderWebsite":null,"Delivery":"Y","DeliveryWebsite":null,"DeliveryWebsite2":null,"DeliveryWebsite3":null,"CreatedBy":"doadmin@%","DateAdded":"2020-03-26T18:47:48.000Z","DateUpdated":"2020-04-06T17:06:20.000Z","UpdatedBy":"doadmin@%","Latitude":"40.886162","Longitude":"-81.594017"},{"RestrntID":13,"Name":"Speak Easy Coffee & Conversation","Address":"128 N. Canal St. ","City":"Canal Fulton","State":"OH","Zipcode":"44614","Phone":"3304087667","Website":"https://www.canalfultonspeakeasy.com","Open":"Y","OnlineOrders":"N","OrderWebsite":null,"Delivery":"N","DeliveryWebsite":null,"DeliveryWebsite2":null,"DeliveryWebsite3":null,"CreatedBy":"doadmin@%","DateAdded":"2020-03-26T18:47:48.000Z","DateUpdated":"2020-04-06T17:12:39.000Z","UpdatedBy":"doadmin@%","Latitude":"40.890591","Longitude":"-81.599045"},{"RestrntID":14,"Name":"Maize Valley Winery & Craft Brewery","Address":"6193 Edison St. NE ","City":"Hartville","State":"OH","Zipcode":"44632","Phone":"3308778344","Website":"https://www.maizevalley.com","Open":"Y","OnlineOrders":"N","OrderWebsite":null,"Delivery":"N","DeliveryWebsite":null,"DeliveryWebsite2":null,"DeliveryWebsite3":null,"CreatedBy":"doadmin@%","DateAdded":"2020-03-26T18:47:48.000Z","DateUpdated":"2020-04-06T17:09:10.000Z","UpdatedBy":"doadmin@%","Latitude":"40.954311","Longitude":"-81.285309"},{"RestrntID":15,"Name":"Mi Casa Mexican Restaurant","Address":"903 W. Maple St.","City":"Hartville","State":"OH","Zipcode":"44632","Phone":"3308771863","Website":"http://micasahartville.com","Open":"Y","OnlineOrders":"N","OrderWebsite":null,"Delivery":"N","DeliveryWebsite":null,"DeliveryWebsite2":null,"DeliveryWebsite3":null,"CreatedBy":"doadmin@%","DateAdded":"2020-03-26T18:47:48.000Z","DateUpdated":"2020-04-06T17:12:40.000Z","UpdatedBy":"doadmin@%","Latitude":"40.967491","Longitude":"-81.344643"},{"RestrntID":16,"Name":"The Barrell Room","Address":"129 N. Canal St.","City":"Canal Fulton","State":"OH","Zipcode":"44614","Phone":"3304087131","Website":"https://www.barrelroomwinebar.com/canalfulton","Open":"Y","OnlineOrders":"N","OrderWebsite":null,"Delivery":"N","DeliveryWebsite":null,"DeliveryWebsite2":null,"DeliveryWebsite3":null,"CreatedBy":"doadmin@%","DateAdded":"2020-03-26T18:47:48.000Z","DateUpdated":"2020-04-06T17:20:53.000Z","UpdatedBy":"doadmin@%","Latitude":"40.890591","Longitude":"-81.599045"},{"RestrntID":17,"Name":"The Front Porch Cafe & Store","Address":"932 West Maple Hartville","City":"Hartville","State":"OH","Zipcode":"44632","Phone":"3308772706","Website":"https://frontporchcafe.org","Open":"Y","OnlineOrders":"N","OrderWebsite":null,"Delivery":"N","DeliveryWebsite":null,"DeliveryWebsite2":null,"DeliveryWebsite3":null,"CreatedBy":"doadmin@%","DateAdded":"2020-03-26T18:47:48.000Z","DateUpdated":"2020-04-06T17:20:53.000Z","UpdatedBy":"doadmin@%","Latitude":"40.967491","Longitude":"-81.344643"},{"RestrntID":18,"Name":"Hartville Kitchen Restaurant & Bakery","Address":"1015 Edison St. NW","City":"Hartville","State":"OH","Zipcode":"44632","Phone":"3308779353","Website":"https://www.hartvillekitchen.com","Open":"Y","OnlineOrders":"Y","OrderWebsite":"https://www.orderstart.com/hartvillekitchen","Delivery":"N","DeliveryWebsite":null,"DeliveryWebsite2":null,"DeliveryWebsite3":null,"CreatedBy":"doadmin@%","DateAdded":"2020-03-26T18:47:48.000Z","DateUpdated":"2020-04-06T17:20:53.000Z","UpdatedBy":"doadmin@%","Latitude":"40.971275","Longitude":"-81.362579"},{"RestrntID":19,"Name":"Peace Love & Little Donuts of Hartville","Address":"115 S. Prospect Ave. ","City":"Hartville","State":"OH","Zipcode":"44632","Phone":"3308773043","Website":"https://www.peaceloveandlittledonuts.com/locations/hartville","Open":"Y","OnlineOrders":"Y","OrderWebsite":"https://ordering.app/peaceloveandlittledonuts/","Delivery":"N","DeliveryWebsite":null,"DeliveryWebsite2":null,"DeliveryWebsite3":null,"CreatedBy":"doadmin@%","DateAdded":"2020-03-26T18:47:48.000Z","DateUpdated":"2020-04-06T17:20:54.000Z","UpdatedBy":"doadmin@%","Latitude":"40.960808","Longitude":"-81.33493"},{"RestrntID":20,"Name":"China Garden of Louisville","Address":"405 W. Main St","City":"Louisville","State":"OH","Zipcode":"44641","Phone":"3308755568","Website":"http://www.chinagardenlouisville.com/index.php/home","Open":"Y","OnlineOrders":"Y","OrderWebsite":"http://chinagardenlouisville.com/index.php/shoppingcart/done_msg","Delivery":"N","DeliveryWebsite":null,"DeliveryWebsite2":null,"DeliveryWebsite3":null,"CreatedBy":"doadmin@%","DateAdded":"2020-03-26T18:47:48.000Z","DateUpdated":"2020-04-06T17:20:54.000Z","UpdatedBy":"doadmin@%","Latitude":"40.836605","Longitude":"-81.269241"},{"RestrntID":21,"Name":"Ermannos Pizza","Address":"6322 Louisville St NE","City":"Louisville","State":"OH","Zipcode":"44641","Phone":"3308755519","Website":"http://www.ermannospizza.com","Open":"Y","OnlineOrders":"Y","OrderWebsite":"https://www.toasttab.com/ermannos-pizza-6322-louisville-st-ne","Delivery":"N","DeliveryWebsite":null,"DeliveryWebsite2":null,"DeliveryWebsite3":null,"CreatedBy":"doadmin@%","DateAdded":"2020-03-26T18:47:48.000Z","DateUpdated":"2020-04-06T17:20:54.000Z","UpdatedBy":"doadmin@%","Latitude":"40.834431","Longitude":"-81.281511"},{"RestrntID":22,"Name":"Gionino's Pizzeria","Address":"2112 E Main St","City":"Louisville","State":"OH","Zipcode":"44641","Phone":"3308751515","Website":"https://www.gioninos.com","Open":"Y","OnlineOrders":"Y","OrderWebsite":"https://www.gioninos.com/Locations","Delivery":"N","DeliveryWebsite":null,"DeliveryWebsite2":null,"DeliveryWebsite3":null,"CreatedBy":"doadmin@%","DateAdded":"2020-03-26T18:47:48.000Z","DateUpdated":"2020-04-06T17:23:18.000Z","UpdatedBy":"doadmin@%","Latitude":"40.838707","Longitude":"-81.248055"},{"RestrntID":23,"Name":"Jimmy's Backyard BBQ","Address":"1338 N. Chapel St.","City":"Louisville","State":"OH","Zipcode":"44641","Phone":"3308710006","Website":"http://jimmysbackyardbbq.com/louisville/","Open":"Y","OnlineOrders":"N","OrderWebsite":null,"Delivery":"N","DeliveryWebsite":null,"DeliveryWebsite2":null,"DeliveryWebsite3":null,"CreatedBy":"doadmin@%","DateAdded":"2020-03-26T18:47:48.000Z","DateUpdated":"2020-04-06T17:23:18.000Z","UpdatedBy":"doadmin@%","Latitude":"40.843754","Longitude":"-81.259315"},{"RestrntID":24,"Name":"Louisville Eagles","Address":"306 W. Main St","City":"Louisville","State":"OH","Zipcode":"44641","Phone":"3308752113","Website":"https://www.facebook.com/2374LadiesAuxiliary/?eid=ARB2ATViMeSrY77i8hRYTytc6rEJ1Okgfef45jgJG0IwgeLsQD8Nc1YBqsn2BN16hIicpzI9YyeoHhJM","Open":"Y","OnlineOrders":"N","OrderWebsite":null,"Delivery":"N","DeliveryWebsite":null,"DeliveryWebsite2":null,"DeliveryWebsite3":null,"CreatedBy":"doadmin@%","DateAdded":"2020-03-26T18:47:48.000Z","DateUpdated":"2020-04-06T17:23:19.000Z","UpdatedBy":"doadmin@%","Latitude":"40.836605","Longitude":"-81.269241"},{"RestrntID":25,"Name":"Samantha's Grill","Address":"1909 W Main Street","City":"Louisville","State":"OH","Zipcode":"44641","Phone":"3308756111","Website":"https://www.facebook.com/thegrillintheville/","Open":"Y","OnlineOrders":"N","OrderWebsite":null,"Delivery":"N","DeliveryWebsite":null,"DeliveryWebsite2":null,"DeliveryWebsite3":null,"CreatedBy":"doadmin@%","DateAdded":"2020-03-26T18:47:48.000Z","DateUpdated":"2020-04-06T17:43:33.000Z","UpdatedBy":"doadmin@%","Latitude":"40.834648","Longitude":"-81.280556"},{"RestrntID":26,"Name":"Scratch Steakhouse and Lounge","Address":"108 East Main Street","City":"Louisville","State":"OH","Zipcode":"44641","Phone":"3308718063","Website":"https://www.scratchsteakhouseandlounge.com","Open":"Y","OnlineOrders":"N","OrderWebsite":null,"Delivery":"Y","DeliveryWebsite":"https://www.doordash.com/store/scratch-steakhouse-and-lounge-louisville-828076/en-US","DeliveryWebsite2":null,"DeliveryWebsite3":null,"CreatedBy":"doadmin@%","DateAdded":"2020-03-26T18:47:48.000Z","DateUpdated":"2020-04-06T17:50:43.000Z","UpdatedBy":"doadmin@%","Latitude":"40.838707","Longitude":"-81.248055"},{"RestrntID":27,"Name":"Señor Pancho's","Address":"1408 N Chapel St","City":"Louisville","State":"OH","Zipcode":"44641","Phone":"3308754617","Website":"https://senorpanchoslouisv.wixsite.com/mysite","Open":"Y","OnlineOrders":"N","OrderWebsite":null,"Delivery":"N","DeliveryWebsite":null,"DeliveryWebsite2":null,"DeliveryWebsite3":null,"CreatedBy":"doadmin@%","DateAdded":"2020-03-26T18:47:48.000Z","DateUpdated":"2020-04-06T17:50:43.000Z","UpdatedBy":"doadmin@%","Latitude":"40.851242","Longitude":"-81.258904"},{"RestrntID":28,"Name":"Unhitched Beer","Address":"115 South Mill Street","City":"Louisville","State":"OH","Zipcode":"44641","Phone":"3308718021","Website":"https://www.unhitched.beer","Open":"Y","OnlineOrders":"Y","OrderWebsite":"https://www.unhitched.beer/carryout","Delivery":"N","DeliveryWebsite":null,"DeliveryWebsite2":null,"DeliveryWebsite3":null,"CreatedBy":"doadmin@%","DateAdded":"2020-03-26T18:47:48.000Z","DateUpdated":"2020-04-06T17:50:44.000Z","UpdatedBy":"doadmin@%","Latitude":"40.834354","Longitude":"-81.258247"},{"RestrntID":29,"Name":"Uptown Joe","Address":"117 East Main Street","City":"Louisville","State":"OH","Zipcode":"44641","Phone":"3308718318","Website":"http://www.uptownjoe.com/home.html","Open":"Y","OnlineOrders":"N","OrderWebsite":null,"Delivery":"Y","DeliveryWebsite":"https://www.doordash.com/store/uptown-joe-louisville-601105/en-US","DeliveryWebsite2":null,"DeliveryWebsite3":null,"CreatedBy":"doadmin@%","DateAdded":"2020-03-26T18:47:48.000Z","DateUpdated":"2020-04-06T17:50:44.000Z","UpdatedBy":"doadmin@%","Latitude":"40.838707","Longitude":"-81.248055"},{"RestrntID":30,"Name":"Zealous Nutrition","Address":"528 W Main St.","City":"Louisville","State":"OH","Zipcode":"44641","Phone":"3308719610","Website":"https://www.facebook.com/zealousnutritionlouisville/","Open":"Y","OnlineOrders":"N","OrderWebsite":null,"Delivery":"N","DeliveryWebsite":null,"DeliveryWebsite2":null,"DeliveryWebsite3":null,"CreatedBy":"doadmin@%","DateAdded":"2020-03-26T18:47:48.000Z","DateUpdated":"2020-04-06T17:50:44.000Z","UpdatedBy":"doadmin@%","Latitude":"40.836605","Longitude":"-81.269241"},{"RestrntID":31,"Name":"Grinders Above & Beyond","Address":" 3114 Whipple Ave NW","City":"Canton","State":"OH","Zipcode":"44718","Phone":"3304775411","Website":"https://www.grinders.net/","Open":"Y","OnlineOrders":"Y","OrderWebsite":"https://www.grinders.net/ordernow/","Delivery":"N","DeliveryWebsite":null,"DeliveryWebsite2":null,"DeliveryWebsite3":null,"CreatedBy":"doadmin@%","DateAdded":"2020-03-26T18:47:48.000Z","DateUpdated":"2020-04-06T17:50:44.000Z","UpdatedBy":"doadmin@%","Latitude":"40.83812","Longitude":"-81.423882"},{"RestrntID":32,"Name":"Muggswigz Coffee & Tea","Address":"137 Walnut Ave N","City":"Canton","State":"OH","Zipcode":"44702","Phone":"3304526336","Website":"https://muggswigz.com/","Open":"Y","OnlineOrders":"Y","OrderWebsite":"https://www.seamless.com/menu/muggswigz-coffee--tea-137-walnut-ave-ne-canton/1040157","Delivery":"Y","DeliveryWebsite":"https://www.seamless.com/menu/muggswigz-coffee--tea-137-walnut-ave-ne-canton/1040157","DeliveryWebsite2":"https://www.doordash.com/store/muggswigz-coffee-tea-co-canton-771715/en-US","DeliveryWebsite3":null,"CreatedBy":"doadmin@%","DateAdded":"2020-03-26T18:47:48.000Z","DateUpdated":"2020-04-06T17:50:44.000Z","UpdatedBy":"doadmin@%","Latitude":"40.801632","Longitude":"-81.371635"},{"RestrntID":33,"Name":"Nom Nom Cupcake Factory","Address":"4866 Everhard Rd. NW","City":"Canton","State":"OH","Zipcode":"44718","Phone":"3307052560","Website":"https://www.nomnomcupcakefactory.com/","Open":"Y","OnlineOrders":"N","OrderWebsite":null,"Delivery":"N","DeliveryWebsite":null,"DeliveryWebsite2":null,"DeliveryWebsite3":null,"CreatedBy":"doadmin@%","DateAdded":"2020-03-26T18:47:48.000Z","DateUpdated":"2020-04-06T18:00:22.000Z","UpdatedBy":"doadmin@%","Latitude":"40.855034","Longitude":"-81.437363"},{"RestrntID":34,"Name":"Old Carolina Barbecue Company","Address":"900 W State St","City":"Alliance","State":"OH","Zipcode":"44601","Phone":"3306804710","Website":"https://oldcarolina.com/","Open":"Y","OnlineOrders":"Y","OrderWebsite":"https://oldcarolina.alohaorderonline.com/","Delivery":"Y","DeliveryWebsite":"https://oldcarolina.alohaorderonline.com/","DeliveryWebsite2":null,"DeliveryWebsite3":null,"CreatedBy":"doadmin@%","DateAdded":"2020-03-26T18:47:48.000Z","DateUpdated":"2020-04-06T18:00:22.000Z","UpdatedBy":"doadmin@%","Latitude":"40.901749","Longitude":"-81.111885"},{"RestrntID":35,"Name":"Papa Bear's","Address":"4990 Dressler Rd NW","City":"Canton","State":"OH","Zipcode":"44718","Phone":"3304930090","Website":"http://www.pizzaovenpapabears.com/","Open":"Y","OnlineOrders":"N","OrderWebsite":null,"Delivery":"N","DeliveryWebsite":null,"DeliveryWebsite2":null,"DeliveryWebsite3":null,"CreatedBy":"doadmin@%","DateAdded":"2020-03-26T18:47:48.000Z","DateUpdated":"2020-04-06T18:00:22.000Z","UpdatedBy":"doadmin@%","Latitude":"40.851929","Longitude":"-81.433838"},{"RestrntID":36,"Name":"Papa Gyros ","Address":"320 W State St","City":"Alliance","State":"OH","Zipcode":"44601","Phone":"3308237773","Website":"https://www.papagyros.com/","Open":"Y","OnlineOrders":"Y","OrderWebsite":"https://www.toasttab.com/locations/a67fcb53-53c5-4324-92f0-7ebdf928215b#!/","Delivery":"Y","DeliveryWebsite":"https://www.toasttab.com/locations/a67fcb53-53c5-4324-92f0-7ebdf928215b#!/","DeliveryWebsite2":"https://www.doordash.com/store/papa-gyros-canton-433547/en-US","DeliveryWebsite3":null,"CreatedBy":"doadmin@%","DateAdded":"2020-03-26T18:47:48.000Z","DateUpdated":"2020-04-06T18:00:22.000Z","UpdatedBy":"doadmin@%","Latitude":"40.901749","Longitude":"-81.111885"},{"RestrntID":37,"Name":"Subway","Address":"2100 Parkway Blvd","City":"Alliance","State":"OH","Zipcode":"44601","Phone":"3308232618","Website":"https://www.subway.com/en-us","Open":"Y","OnlineOrders":"Y","OrderWebsite":"https://www.subway.com/en-us","Delivery":"Y","DeliveryWebsite":"https://www.doordash.com/store/subway-canton-568341/en-US","DeliveryWebsite2":null,"DeliveryWebsite3":null,"CreatedBy":"doadmin@%","DateAdded":"2020-03-26T18:47:48.000Z","DateUpdated":"2020-04-06T18:00:22.000Z","UpdatedBy":"doadmin@%","Latitude":"40.901157","Longitude":"-81.11808"},{"RestrntID":38,"Name":"Swensons Drive In","Address":"1558 N Main St","City":"North Canton","State":"OH","Zipcode":"44720","Phone":"3304999494","Website":"http://swensonsdriveins.com/","Open":"Y","OnlineOrders":"N","OrderWebsite":null,"Delivery":"N","DeliveryWebsite":null,"DeliveryWebsite2":null,"DeliveryWebsite3":null,"CreatedBy":"doadmin@%","DateAdded":"2020-03-26T18:47:48.000Z","DateUpdated":"2020-04-06T18:00:22.000Z","UpdatedBy":"doadmin@%","Latitude":"40.887276","Longitude":"-81.404808"},{"RestrntID":39,"Name":"Thatsa Wrapp","Address":"600 6th St NW","City":"Canton","State":"OH","Zipcode":"44702","Phone":"3304529727","Website":"http://www.thatsawrapp.net/","Open":"Y","OnlineOrders":"N","OrderWebsite":null,"Delivery":"N","DeliveryWebsite":null,"DeliveryWebsite2":null,"DeliveryWebsite3":null,"CreatedBy":"doadmin@%","DateAdded":"2020-03-26T18:47:48.000Z","DateUpdated":"2020-04-06T18:00:23.000Z","UpdatedBy":"doadmin@%","Latitude":"40.80312","Longitude":"-81.379517"},{"RestrntID":40,"Name":"The Winking Lizard","Address":"2175 E Maple St","City":"North Canton","State":"OH","Zipcode":"44720","Phone":"3304706460","Website":"https://www.winkinglizard.com/","Open":"Y","OnlineOrders":"Y","OrderWebsite":"https://winkinglizard-canton.patronpath.com/","Delivery":"Y","DeliveryWebsite":"https://www.doordash.com/food-delivery/canton-oh-restaurants/american/","DeliveryWebsite2":null,"DeliveryWebsite3":null,"CreatedBy":"doadmin@%","DateAdded":"2020-03-26T18:47:48.000Z","DateUpdated":"2020-04-06T18:05:27.000Z","UpdatedBy":"doadmin@%","Latitude":"40.87505","Longitude":"-81.368721"},{"RestrntID":41,"Name":"Milk and Honey Candy & Soda","Address":"1927 Stark Ave SW","City":"Canton","State":"OH","Zipcode":"44706","Phone":"3304925884","Website":"https://www.facebook.com/MilkAndHoneyCantonOH/","Open":"Y","OnlineOrders":"N","OrderWebsite":null,"Delivery":"Y","DeliveryWebsite":"https://www.doordash.com/store/milk-honey-canton-258023/en-US","DeliveryWebsite2":null,"DeliveryWebsite3":null,"CreatedBy":"doadmin@%","DateAdded":"2020-03-27T17:04:02.000Z","DateUpdated":"2020-04-06T18:31:51.000Z","UpdatedBy":"doadmin@%","Latitude":"40.780571","Longitude":"-81.390305"},{"RestrntID":42,"Name":"Aladdin's Eatery","Address":"6698 Strip Ave NW","City":"North Canton","State":"OH","Zipcode":"44720","Phone":"3302448855","Website":"aladdins.com","Open":"Y","OnlineOrders":"N","OrderWebsite":null,"Delivery":"Y","DeliveryWebsite":null,"DeliveryWebsite2":null,"DeliveryWebsite3":null,"CreatedBy":"doadmin@%","DateAdded":"2020-03-27T17:04:02.000Z","DateUpdated":"2020-04-06T18:31:51.000Z","UpdatedBy":"doadmin@%","Latitude":"40.879333","Longitude":"-81.434242"},{"RestrntID":43,"Name":"Aunt Aylee's Berd-House Deli and Catering","Address":"2103 Gambrinus Ave SW","City":"Canton","State":"OH","Zipcode":"44706","Phone":"3304791671","Website":"http://auntalyeescatering.com/berd-house_deli_menu","Open":"Y","OnlineOrders":"N","OrderWebsite":null,"Delivery":"Y","DeliveryWebsite":null,"DeliveryWebsite2":null,"DeliveryWebsite3":null,"CreatedBy":"doadmin@%","DateAdded":"2020-03-27T17:04:02.000Z","DateUpdated":"2020-04-06T18:31:51.000Z","UpdatedBy":"doadmin@%","Latitude":"40.772034","Longitude":"-81.418343"},{"RestrntID":44,"Name":"Baker's Cafe 33","Address":"1927 Stark Ave SW","City":"Canton","State":"OH","Zipcode":"44706","Phone":"3304540528","Website":"https://www.facebook.com/Bakers-Cafe33-Inc-111627562208024/","Open":"Y","OnlineOrders":"N","OrderWebsite":null,"Delivery":"N","DeliveryWebsite":null,"DeliveryWebsite2":null,"DeliveryWebsite3":null,"CreatedBy":"doadmin@%","DateAdded":"2020-03-27T17:04:02.000Z","DateUpdated":"2020-04-06T18:31:51.000Z","UpdatedBy":"doadmin@%","Latitude":"40.780571","Longitude":"-81.390305"},{"RestrntID":45,"Name":"Bombay Sitar","Address":"5111 Fulton Dr NW","City":"Canton","State":"OH","Zipcode":"44718","Phone":"3303050671","Website":"http://www.bombaysitar.com/","Open":"Y","OnlineOrders":"N","OrderWebsite":null,"Delivery":"Y","DeliveryWebsite":"https://postmates.com/merchant/bombay-sitar-restaurant-canton?client=customer.web&version=3.0.0","DeliveryWebsite2":"https://www.doordash.com/store/bombay-sitar-canton-258122/en-US","DeliveryWebsite3":null,"CreatedBy":"doadmin@%","DateAdded":"2020-03-27T17:04:02.000Z","DateUpdated":"2020-04-06T18:31:51.000Z","UpdatedBy":"doadmin@%","Latitude":"40.855686","Longitude":"-81.453156"},{"RestrntID":46,"Name":"Buffalo Wild Wings","Address":"5062 Dressler Rd NW","City":"Canton","State":"OH","Zipcode":"44718","Phone":"3304912999","Website":"https://www.buffalowildwings.com/","Open":"Y","OnlineOrders":"Y","OrderWebsite":"https://www.buffalowildwings.com/","Delivery":"N","DeliveryWebsite":null,"DeliveryWebsite2":null,"DeliveryWebsite3":null,"CreatedBy":"doadmin@%","DateAdded":"2020-03-27T17:04:02.000Z","DateUpdated":"2020-04-06T18:31:51.000Z","UpdatedBy":"doadmin@%","Latitude":"40.851929","Longitude":"-81.433838"},{"RestrntID":47,"Name":"Camellone Italian American Cuisine","Address":"4630 Cleveland Ave NW","City":"Canton","State":"OH","Zipcode":"44709","Phone":"3307546995","Website":"https://www.camellone.com/","Open":"Y","OnlineOrders":"Y","OrderWebsite":"https://slicelife.com/restaurants/oh/canton/44709/camellone/menu?utm_campaign=order_now_button&utm_medium=referral&utm_source=camellonemenu.com","Delivery":"Y","DeliveryWebsite":null,"DeliveryWebsite2":null,"DeliveryWebsite3":null,"CreatedBy":"doadmin@%","DateAdded":"2020-03-27T17:04:02.000Z","DateUpdated":"2020-04-06T18:31:51.000Z","UpdatedBy":"doadmin@%","Latitude":"40.845417","Longitude":"-81.391815"},{"RestrntID":48,"Name":"Coaches Burger Bar","Address":"4834 Everhard Rd NW","City":"Canton","State":"OH","Zipcode":"44718","Phone":"3306391145","Website":"http://www.coachesburgers.com/","Open":"Y","OnlineOrders":"N","OrderWebsite":null,"Delivery":"N","DeliveryWebsite":null,"DeliveryWebsite2":null,"DeliveryWebsite3":null,"CreatedBy":"doadmin@%","DateAdded":"2020-03-27T17:04:02.000Z","DateUpdated":"2020-04-06T18:31:52.000Z","UpdatedBy":"doadmin@%","Latitude":"40.855034","Longitude":"-81.437363"},{"RestrntID":49,"Name":"Danny Boys","Address":"10 Tallmadge Cir","City":"Tallmadge","State":"OH","Zipcode":"44278","Phone":"3306337844","Website":"http://dannyboyspizza.com/","Open":"Y","OnlineOrders":"N","OrderWebsite":null,"Delivery":"Y","DeliveryWebsite":null,"DeliveryWebsite2":null,"DeliveryWebsite3":null,"CreatedBy":"doadmin@%","DateAdded":"2020-03-27T17:04:02.000Z","DateUpdated":"2020-04-06T18:31:52.000Z","UpdatedBy":"doadmin@%","Latitude":"41.100876","Longitude":"-81.441261"},{"RestrntID":50,"Name":"Doughy Paws Pizzeria","Address":"7232 Portage St NW","City":"Massillon","State":"OH","Zipcode":"44646","Phone":"3308800999","Website":"https://www.facebook.com/DoughyPaws/","Open":"Y","OnlineOrders":"Y","OrderWebsite":"https://doughypaws.com/","Delivery":"Y","DeliveryWebsite":null,"DeliveryWebsite2":null,"DeliveryWebsite3":null,"CreatedBy":"doadmin@%","DateAdded":"2020-03-27T17:04:02.000Z","DateUpdated":"2020-04-06T18:31:52.000Z","UpdatedBy":"doadmin@%","Latitude":"40.879894","Longitude":"-81.508873"},{"RestrntID":51,"Name":"Falcone's Tavern","Address":"5029 Tuscarawas St W","City":"Canton","State":"OH","Zipcode":"44708","Phone":"3304770500","Website":"http://www.falconestavern.com/","Open":"Y","OnlineOrders":"N","OrderWebsite":null,"Delivery":"N","DeliveryWebsite":null,"DeliveryWebsite2":null,"DeliveryWebsite3":null,"CreatedBy":"doadmin@%","DateAdded":"2020-03-27T17:04:02.000Z","DateUpdated":"2020-04-06T18:31:52.000Z","UpdatedBy":"doadmin@%","Latitude":"40.793774","Longitude":"-81.440483"},{"RestrntID":52,"Name":"First Watch","Address":"5075 Dressler Rd NW","City":"Canton","State":"OH","Zipcode":"44718","Phone":"3302225087","Website":"https://www.firstwatch.com/","Open":"Y","OnlineOrders":"Y","OrderWebsite":"https://firstwatch.olo.com/","Delivery":"N","DeliveryWebsite":null,"DeliveryWebsite2":null,"DeliveryWebsite3":null,"CreatedBy":"doadmin@%","DateAdded":"2020-03-27T17:04:02.000Z","DateUpdated":"2020-04-06T18:31:52.000Z","UpdatedBy":"doadmin@%","Latitude":"40.851929","Longitude":"-81.433838"},{"RestrntID":53,"Name":"Game Time Bar & Grill","Address":"5153 Tuscarawas St W","City":"Canton","State":"OH","Zipcode":"44708","Phone":"3309565471","Website":"https://gametimeohio.com/","Open":"Y","OnlineOrders":"N","OrderWebsite":null,"Delivery":"N","DeliveryWebsite":null,"DeliveryWebsite2":null,"DeliveryWebsite3":null,"CreatedBy":"doadmin@%","DateAdded":"2020-03-27T17:04:02.000Z","DateUpdated":"2020-04-06T18:31:52.000Z","UpdatedBy":"doadmin@%","Latitude":"40.792294","Longitude":"-81.447472"},{"RestrntID":54,"Name":"Gervasi Vineyard","Address":"1700 55th St NE","City":"Canton","State":"OH","Zipcode":"44721","Phone":"3304971000","Website":"https://www.gervasivineyard.com/?utm_source=GMB&utm_medium=Organic&utm_campaign=Gervasi%20Vineyard","Open":"Y","OnlineOrders":"Y","OrderWebsite":"https://www.gervasivineyard.com/carryout","Delivery":"Y","DeliveryWebsite":null,"DeliveryWebsite2":null,"DeliveryWebsite3":null,"CreatedBy":"doadmin@%","DateAdded":"2020-03-27T17:04:02.000Z","DateUpdated":"2020-04-06T18:39:24.000Z","UpdatedBy":"doadmin@%","Latitude":"40.859631","Longitude":"-81.345337"},{"RestrntID":55,"Name":"Gregory's Family Restaurant","Address":"2835 Whipple Ave NW","City":"Canton","State":"OH","Zipcode":"44708","Phone":"3304771296","Website":"https://www.gregorysfamilyrestaurant.com/","Open":"Y","OnlineOrders":"N","OrderWebsite":null,"Delivery":"N","DeliveryWebsite":null,"DeliveryWebsite2":null,"DeliveryWebsite3":null,"CreatedBy":"doadmin@%","DateAdded":"2020-03-27T17:04:02.000Z","DateUpdated":"2020-04-06T18:39:24.000Z","UpdatedBy":"doadmin@%","Latitude":"40.819305","Longitude":"-81.424988"},{"RestrntID":56,"Name":"Heggy's Nut Shop","Address":"3200 Tuscarawas St W","City":"Canton","State":"OH","Zipcode":"44708","Phone":"3304546611","Website":"https://heggysnutshop.com/","Open":"Y","OnlineOrders":"Y","OrderWebsite":"https://heggysnutshop.com/shop-now/","Delivery":"N","DeliveryWebsite":null,"DeliveryWebsite2":null,"DeliveryWebsite3":null,"CreatedBy":"doadmin@%","DateAdded":"2020-03-27T17:04:02.000Z","DateUpdated":"2020-04-06T18:39:24.000Z","UpdatedBy":"doadmin@%","Latitude":"40.797966","Longitude":"-81.412704"},{"RestrntID":57,"Name":"Jasmine's Asian Bistro","Address":"1122 30th St NW","City":"Canton","State":"OH","Zipcode":"44709","Phone":"3304933331","Website":"https://thejasminebistro.com/","Open":"Y","OnlineOrders":"N","OrderWebsite":null,"Delivery":"N","DeliveryWebsite":null,"DeliveryWebsite2":null,"DeliveryWebsite3":null,"CreatedBy":"doadmin@%","DateAdded":"2020-03-27T17:04:02.000Z","DateUpdated":"2020-04-06T18:39:24.000Z","UpdatedBy":"doadmin@%","Latitude":"40.831448","Longitude":"-81.382446"},{"RestrntID":58,"Name":"La Pizzeria","Address":"3656 Dressler Rd NW","City":"Canton","State":"OH","Zipcode":"44718","Phone":"3304774700","Website":"http://www.lapizzaria.com/","Open":"Y","OnlineOrders":"N","OrderWebsite":null,"Delivery":"N","DeliveryWebsite":null,"DeliveryWebsite2":null,"DeliveryWebsite3":null,"CreatedBy":"doadmin@%","DateAdded":"2020-03-27T17:04:02.000Z","DateUpdated":"2020-04-06T18:39:24.000Z","UpdatedBy":"doadmin@%","Latitude":"40.834854","Longitude":"-81.433952"},{"RestrntID":59,"Name":"Lindsey's Restaurant","Address":"1900 Tuscarawas St W","City":"Canton","State":"OH","Zipcode":"44708","Phone":"3304556908","Website":"https://www.facebook.com/Lindseys.Restaurant.Canton/","Open":"Y","OnlineOrders":"N","OrderWebsite":null,"Delivery":"N","DeliveryWebsite":null,"DeliveryWebsite2":null,"DeliveryWebsite3":null,"CreatedBy":"doadmin@%","DateAdded":"2020-03-27T17:04:02.000Z","DateUpdated":"2020-04-06T18:51:12.000Z","UpdatedBy":"doadmin@%","Latitude":"40.79974","Longitude":"-81.39769"},{"RestrntID":60,"Name":"Melt Bar and Grilled","Address":"4199 Belden Village St NW","City":"Canton","State":"OH","Zipcode":"44718","Phone":"3304944604","Website":"https://meltbarandgrilled.com/","Open":"Y","OnlineOrders":"Y","OrderWebsite":"https://meltbarandgrilled.com/","Delivery":"Y","DeliveryWebsite":null,"DeliveryWebsite2":null,"DeliveryWebsite3":null,"CreatedBy":"doadmin@%","DateAdded":"2020-03-27T17:04:02.000Z","DateUpdated":"2020-04-06T18:51:12.000Z","UpdatedBy":"doadmin@%","Latitude":"40.855316","Longitude":"-81.428085"},{"RestrntID":61,"Name":"Meyers Landing Bar & Grill","Address":"1326 Whipple Ave NW","City":"Canton","State":"OH","Zipcode":"44708","Phone":"3304770295","Website":"https://meyers-landing-bar-grill.business.site/","Open":"Y","OnlineOrders":"N","OrderWebsite":null,"Delivery":"N","DeliveryWebsite":null,"DeliveryWebsite2":null,"DeliveryWebsite3":null,"CreatedBy":"doadmin@%","DateAdded":"2020-03-27T17:04:02.000Z","DateUpdated":"2020-04-06T18:51:12.000Z","UpdatedBy":"doadmin@%","Latitude":"40.819305","Longitude":"-81.424988"},{"RestrntID":62,"Name":"Olive Garden","Address":"4810 Dressler Rd NW","City":"Canton","State":"OH","Zipcode":"44718","Phone":"3304925313","Website":"https://www.olivegarden.com/home","Open":"Y","OnlineOrders":"Y","OrderWebsite":"https://www.olivegarden.com/order-online?_requestid=25061","Delivery":"Y","DeliveryWebsite":null,"DeliveryWebsite2":null,"DeliveryWebsite3":null,"CreatedBy":"doadmin@%","DateAdded":"2020-03-27T17:04:02.000Z","DateUpdated":"2020-04-06T18:51:12.000Z","UpdatedBy":"doadmin@%","Latitude":"40.851929","Longitude":"-81.433838"},{"RestrntID":63,"Name":"Pete's Restaurant","Address":"4223 Tuscarawas St W","City":"Canton","State":"OH","Zipcode":"44708","Phone":"3304790350","Website":"https://petesontusc.com/","Open":"Y","OnlineOrders":"N","OrderWebsite":null,"Delivery":"N","DeliveryWebsite":null,"DeliveryWebsite2":null,"DeliveryWebsite3":null,"CreatedBy":"doadmin@%","DateAdded":"2020-03-27T17:04:02.000Z","DateUpdated":"2020-04-06T18:51:12.000Z","UpdatedBy":"doadmin@%","Latitude":"40.796532","Longitude":"-81.424667"},{"RestrntID":64,"Name":"Quaker Steak & Lube","Address":"6073 Dressler Rd NW","City":"Canton","State":"OH","Zipcode":"44720","Phone":"3304339464","Website":"http://thelube.com/locations/ohio/canton/","Open":"Y","OnlineOrders":"Y","OrderWebsite":"https://quakersteakandlube.alohaorderonline.com/","Delivery":"Y","DeliveryWebsite":null,"DeliveryWebsite2":null,"DeliveryWebsite3":null,"CreatedBy":"doadmin@%","DateAdded":"2020-03-27T17:04:02.000Z","DateUpdated":"2020-04-06T18:51:12.000Z","UpdatedBy":"doadmin@%","Latitude":"40.86977","Longitude":"-81.429901"},{"RestrntID":65,"Name":"Roosters Wings","Address":"4335 Dressler Rd NW","City":"Canton","State":"OH","Zipcode":"44718","Phone":"3305457001","Website":"https://www.wingrestaurantcanton.com/","Open":"Y","OnlineOrders":"N","OrderWebsite":null,"Delivery":"N","DeliveryWebsite":null,"DeliveryWebsite2":null,"DeliveryWebsite3":null,"CreatedBy":"doadmin@%","DateAdded":"2020-03-27T17:04:02.000Z","DateUpdated":"2020-04-06T18:51:12.000Z","UpdatedBy":"doadmin@%","Latitude":"40.851929","Longitude":"-81.433838"},{"RestrntID":66,"Name":"Royal Docks Brewing Co. Brewhouse + Cannery","Address":"5646 Wales Ave NW","City":"Massillon","State":"OH","Zipcode":"44646","Phone":"3303539103","Website":"https://www.docks.beer/brewhouse","Open":"Y","OnlineOrders":"N","OrderWebsite":null,"Delivery":"N","DeliveryWebsite":null,"DeliveryWebsite2":null,"DeliveryWebsite3":null,"CreatedBy":"doadmin@%","DateAdded":"2020-03-27T17:04:02.000Z","DateUpdated":"2020-04-06T18:51:13.000Z","UpdatedBy":"doadmin@%","Latitude":"40.871414","Longitude":"-81.480171"},{"RestrntID":67,"Name":"Ruby Tuesday","Address":"5449 Dressler Rd NW","City":"North Canton","State":"OH","Zipcode":"44720","Phone":"3304940232","Website":"http://www.rubytuesday.com/menu","Open":"Y","OnlineOrders":"Y","OrderWebsite":"http://www.rubytuesday.com/ruby-tue-go","Delivery":"Y","DeliveryWebsite":null,"DeliveryWebsite2":null,"DeliveryWebsite3":null,"CreatedBy":"doadmin@%","DateAdded":"2020-03-27T17:04:02.000Z","DateUpdated":"2020-04-06T18:51:13.000Z","UpdatedBy":"doadmin@%","Latitude":"40.86977","Longitude":"-81.429901"},{"RestrntID":68,"Name":"Sahara Grille","Address":"4794 Dressler Rd NW","City":"Canton","State":"OH","Zipcode":"44718","Phone":"3304924647","Website":"http://saharagrille.com/","Open":"Y","OnlineOrders":"N","OrderWebsite":null,"Delivery":"Y","DeliveryWebsite":"https://www.grubhub.com/restaurant/sahara-grille-4794-dressler-rd-nw-canton/716514?utm_source=google&utm_medium=cpc&utm_campaign=National%20%7C%20All%20%7C%20PPA%20%7C%2013&utm_content=716514&chiri_offerPromoOneLiner=6ClUAlSjVkWxuRTA694RfS&chiri_offerPromo=21U71uQgnUk02K0ngHeT1u&chiri_restaurant-banner=2dV3vstW4Y3GnfI4fpWvgl&gclid=CjwKCAjwguzzBRBiEiwAgU0FT1nh7nmPt5JSvi1S0QBf2tikjgeVtcw-lHsjRRONmzSRT_VtNisPHhoCh0wQAvD_BwE&gclsrc=aw.ds","DeliveryWebsite2":null,"DeliveryWebsite3":null,"CreatedBy":"doadmin@%","DateAdded":"2020-03-27T17:04:02.000Z","DateUpdated":"2020-04-06T18:51:13.000Z","UpdatedBy":"doadmin@%","Latitude":"40.851929","Longitude":"-81.433838"},{"RestrntID":69,"Name":"Samantha's Restaurant","Address":"4954 Portage St NW","City":"North Canton","State":"OH","Zipcode":"44720","Phone":"3304999700","Website":"http://www.samanthas-restaurant.com/","Open":"Y","OnlineOrders":"N","OrderWebsite":null,"Delivery":"N","DeliveryWebsite":null,"DeliveryWebsite2":null,"DeliveryWebsite3":null,"CreatedBy":"doadmin@%","DateAdded":"2020-03-27T17:04:02.000Z","DateUpdated":"2020-04-06T18:51:13.000Z","UpdatedBy":"doadmin@%","Latitude":"40.878914","Longitude":"-81.481575"},{"RestrntID":70,"Name":"Smoke the Burger Joint","Address":"4472 Belden Village St NW","City":"Canton","State":"OH","Zipcode":"44718","Phone":"3304997665","Website":"https://smoketheburgerjoint.com/","Open":"Y","OnlineOrders":"Y","OrderWebsite":"https://smoketheburgerjoint.alohaorderonline.com/","Delivery":"N","DeliveryWebsite":"https://www.grubhub.com/restaurant/smoke-the-burger-joint-4472-belden-village-st-canton/817143?utm_source=google&utm_medium=cpc&utm_campaign=National%20%7C%20All%20%7C%20PPA%20%7C%2003&utm_content=817143&chiri_offerPromoOneLiner=6ClUAlSjVkWxuRTA694RfS&chiri_offerPromo=21U71uQgnUk02K0ngHeT1u&chiri_restaurant-banner=2dV3vstW4Y3GnfI4fpWvgl&gclid=CjwKCAjwguzzBRBiEiwAgU0FTwmiSffUGcUg136Aqv5D8ZH_dEWv5Vg6mg9w16SZg5l_oqcT-cc7LRoCYm8QAvD_BwE&gclsrc=aw.ds","DeliveryWebsite2":null,"DeliveryWebsite3":null,"CreatedBy":"doadmin@%","DateAdded":"2020-03-27T17:04:02.000Z","DateUpdated":"2020-04-06T18:51:13.000Z","UpdatedBy":"doadmin@%","Latitude":"40.856396","Longitude":"-81.432251"},{"RestrntID":71,"Name":"Canton Taggarts Ice Cream","Address":"1401 Fulton Rd NW","City":"Canton","State":"OH","Zipcode":"44703","Phone":"3304526844","Website":"http://www.taggartsicecream.com/","Open":"Y","OnlineOrders":"Y","OrderWebsite":"https://direct.chownow.com/order/9758/locations","Delivery":"Y","DeliveryWebsite":"https://www.grubhub.com/restaurant/taggarts-ice-cream-1401-fulton-rd-nw-canton/734187?utm_source=google&utm_medium=cpc&utm_campaign=National%20%7C%20All%20%7C%20PPA%20%7C%2001&utm_content=734187&chiri_offerPromoOneLiner=6ClUAlSjVkWxuRTA694RfS&chiri_offerPromo=21U71uQgnUk02K0ngHeT1u&chiri_restaurant-banner=2dV3vstW4Y3GnfI4fpWvgl&gclid=CjwKCAjwguzzBRBiEiwAgU0FT9TVEy8YZ8Vv1KLRWzTgkragpd9iqhb5lBOLWlp0wtTA4SrHsPt73BoC7pMQAvD_BwE&gclsrc=aw.ds","DeliveryWebsite2":null,"DeliveryWebsite3":null,"CreatedBy":"doadmin@%","DateAdded":"2020-03-27T17:04:02.000Z","DateUpdated":"2020-04-06T18:57:02.000Z","UpdatedBy":"doadmin@%","Latitude":"40.81292","Longitude":"-81.387733"},{"RestrntID":72,"Name":"Thai Lanna & Sushi Bar","Address":"7257 Fulton Dr NW #39","City":"Canton","State":"OH","Zipcode":"44718","Phone":"3308181789","Website":"http://thailannasushi.com/","Open":"Y","OnlineOrders":"Y","OrderWebsite":"http://thailannasushi.com/food-items/","Delivery":"Y","DeliveryWebsite":null,"DeliveryWebsite2":null,"DeliveryWebsite3":null,"CreatedBy":"doadmin@%","DateAdded":"2020-03-27T17:04:02.000Z","DateUpdated":"2020-04-06T18:57:02.000Z","UpdatedBy":"doadmin@%","Latitude":"40.860218","Longitude":"-81.473984"},{"RestrntID":73,"Name":"That Little Italian Kitchen","Address":"5730 Fulton Dr NW","City":"Canton","State":"OH","Zipcode":"44718","Phone":"3304992248","Website":"https://www.thatlittleitaliankitchen.com/","Open":"Y","OnlineOrders":"N","OrderWebsite":null,"Delivery":"N","DeliveryWebsite":null,"DeliveryWebsite2":null,"DeliveryWebsite3":null,"CreatedBy":"doadmin@%","DateAdded":"2020-03-27T17:04:02.000Z","DateUpdated":"2020-04-06T18:57:03.000Z","UpdatedBy":"doadmin@%","Latitude":"40.855686","Longitude":"-81.453156"},{"RestrntID":74,"Name":"The Rail","Address":"4347 Belden Village St NW","City":"Canton","State":"OH","Zipcode":"44718","Phone":"3304977550","Website":"https://www.therailburger.com/canton-ohio-menu","Open":"Y","OnlineOrders":"N","OrderWebsite":null,"Delivery":"N","DeliveryWebsite":null,"DeliveryWebsite2":null,"DeliveryWebsite3":null,"CreatedBy":"doadmin@%","DateAdded":"2020-03-27T17:04:02.000Z","DateUpdated":"2020-04-06T18:57:03.000Z","UpdatedBy":"doadmin@%","Latitude":"40.855316","Longitude":"-81.428085"},{"RestrntID":75,"Name":"Tim's Tavern","Address":"3323 Parkway St NW","City":"Canton","State":"OH","Zipcode":"44708","Phone":"3304556306","Website":"https://www.timstavern.com/Home","Open":"Y","OnlineOrders":"N","OrderWebsite":null,"Delivery":"N","DeliveryWebsite":null,"DeliveryWebsite2":null,"DeliveryWebsite3":null,"CreatedBy":"doadmin@%","DateAdded":"2020-03-27T17:04:02.000Z","DateUpdated":"2020-04-06T20:34:42.000Z","UpdatedBy":"doadmin@%","Latitude":"40.8134","Longitude":"-81.411781"},{"RestrntID":76,"Name":"Arcadia Grille","Address":"321 Court Ave NW","City":"Canton","State":"OH","Zipcode":"44702","Phone":"3304546055","Website":"https://www.facebook.com/arcadia.grille/","Open":"Y","OnlineOrders":"N","OrderWebsite":null,"Delivery":"N","DeliveryWebsite":null,"DeliveryWebsite2":null,"DeliveryWebsite3":null,"CreatedBy":"doadmin@%","DateAdded":"2020-03-27T17:04:02.000Z","DateUpdated":"2020-04-06T20:34:42.000Z","UpdatedBy":"doadmin@%","Latitude":"40.801579","Longitude":"-81.374603"},{"RestrntID":77,"Name":"Basil Asian Bistro","Address":"585 Market Ave N","City":"Canton","State":"OH","Zipcode":"44702","Phone":"3304523888","Website":"https://basilasianrestaurant.com/","Open":"Y","OnlineOrders":"N","OrderWebsite":null,"Delivery":"N","DeliveryWebsite":null,"DeliveryWebsite2":null,"DeliveryWebsite3":null,"CreatedBy":"doadmin@%","DateAdded":"2020-03-27T17:04:02.000Z","DateUpdated":"2020-04-06T20:34:42.000Z","UpdatedBy":"doadmin@%","Latitude":"40.802795","Longitude":"-81.37326"},{"RestrntID":78,"Name":"Bender's Tavern","Address":"137 Court Ave SW","City":"Canton","State":"OH","Zipcode":"44702","Phone":"3304538424","Website":"https://www.benderscanton.com/benders-lunch-dinner-to-go-menu-and-courtesy-drop-off/","Open":"Y","OnlineOrders":"N","OrderWebsite":null,"Delivery":"Y","DeliveryWebsite":null,"DeliveryWebsite2":null,"DeliveryWebsite3":null,"CreatedBy":"doadmin@%","DateAdded":"2020-03-27T17:04:02.000Z","DateUpdated":"2020-04-06T20:34:42.000Z","UpdatedBy":"doadmin@%","Latitude":"40.795181","Longitude":"-81.376877"},{"RestrntID":79,"Name":"Canton Provisions Company","Address":"137 Court Ave SW","City":"Canton","State":"OH","Zipcode":"44702","Phone":"3304538424","Website":"https://cantonprovisions.com/","Open":"Y","OnlineOrders":"N","OrderWebsite":null,"Delivery":"Y","DeliveryWebsite":null,"DeliveryWebsite2":null,"DeliveryWebsite3":null,"CreatedBy":"doadmin@%","DateAdded":"2020-03-27T17:04:02.000Z","DateUpdated":"2020-04-06T20:34:42.000Z","UpdatedBy":"doadmin@%","Latitude":"40.795181","Longitude":"-81.376877"},{"RestrntID":80,"Name":"Cherry Blend Coffee Roasters Ltd.","Address":"1003 Cherry Ave NE","City":"Canton","State":"OH","Zipcode":"44704","Phone":"3304835297","Website":"https://www.cherryblendcoffeeroasters.com/","Open":"Y","OnlineOrders":"Y","OrderWebsite":"https://www.cherryblendcoffeeroasters.com/collections/all","Delivery":"N","DeliveryWebsite":null,"DeliveryWebsite2":null,"DeliveryWebsite3":null,"CreatedBy":"doadmin@%","DateAdded":"2020-03-27T17:04:02.000Z","DateUpdated":"2020-04-06T20:34:42.000Z","UpdatedBy":"doadmin@%","Latitude":"40.806866","Longitude":"-81.368271"},{"RestrntID":81,"Name":"Cork & Canvas On 3rd Llc.","Address":"322 3rd St NW","City":"Canton","State":"OH","Zipcode":"44702","Phone":"3304532263","Website":"https://www.facebook.com/CorkCanvas3rd/","Open":"Y","OnlineOrders":"N","OrderWebsite":null,"Delivery":"Y","DeliveryWebsite":"https://www.doordash.com/store/cork-canvas-on-3rd-canton-258154/en-US","DeliveryWebsite2":"https://www.grubhub.com/restaurant/cork--canvas-on-3rd-322-3rd-st-nw-canton/1218400​​​​​​​","DeliveryWebsite3":null,"CreatedBy":"doadmin@%","DateAdded":"2020-03-27T17:04:02.000Z","DateUpdated":"2020-04-06T20:34:43.000Z","UpdatedBy":"doadmin@%","Latitude":"40.800297","Longitude":"-81.376419"},{"RestrntID":82,"Name":"Deli Ohio","Address":"328 Walnut Ave NE","City":"Canton","State":"OH","Zipcode":"44702","Phone":"3304537777","Website":"http://www.deliohio.com/","Open":"Y","OnlineOrders":"N","OrderWebsite":null,"Delivery":"N","DeliveryWebsite":null,"DeliveryWebsite2":null,"DeliveryWebsite3":null,"CreatedBy":"doadmin@%","DateAdded":"2020-03-27T17:04:02.000Z","DateUpdated":"2020-04-06T20:34:43.000Z","UpdatedBy":"doadmin@%","Latitude":"40.801632","Longitude":"-81.371635"},{"RestrntID":83,"Name":"The Desert Inn","Address":"204 12th St NW","City":"Canton","State":"OH","Zipcode":"44703","Phone":"3304561766","Website":"https://desertinncanton.com/?utm_source=Website&utm_medium=GMB","Open":"Y","OnlineOrders":"N","OrderWebsite":null,"Delivery":"N","DeliveryWebsite":null,"DeliveryWebsite2":null,"DeliveryWebsite3":null,"CreatedBy":"doadmin@%","DateAdded":"2020-03-27T17:04:02.000Z","DateUpdated":"2020-04-06T20:34:43.000Z","UpdatedBy":"doadmin@%","Latitude":"40.809174","Longitude":"-81.373306"},{"RestrntID":84,"Name":"Fromage du Monde","Address":"340 4th St NW","City":"Canton","State":"OH","Zipcode":"44702","Phone":"3302749901","Website":"https://www.fromagecanton.com/","Open":"Y","OnlineOrders":"N","OrderWebsite":null,"Delivery":"Y","DeliveryWebsite":null,"DeliveryWebsite2":null,"DeliveryWebsite3":null,"CreatedBy":"doadmin@%","DateAdded":"2020-03-27T17:04:02.000Z","DateUpdated":"2020-04-06T20:34:43.000Z","UpdatedBy":"doadmin@%","Latitude":"40.800926","Longitude":"-81.376007"},{"RestrntID":85,"Name":"Fronimo's Downtown","Address":"315 Cleveland Ave NW","City":"Canton","State":"OH","Zipcode":"44702","Phone":"2343608665","Website":"https://www.fronimosdowntown.com/","Open":"Y","OnlineOrders":"N","OrderWebsite":null,"Delivery":"N","DeliveryWebsite":null,"DeliveryWebsite2":null,"DeliveryWebsite3":null,"CreatedBy":"doadmin@%","DateAdded":"2020-03-27T17:04:02.000Z","DateUpdated":"2020-04-06T20:34:43.000Z","UpdatedBy":"doadmin@%","Latitude":"40.802979","Longitude":"-81.375061"},{"RestrntID":86,"Name":"George's Lounge","Address":"229 Cleveland Ave NW","City":"Canton","State":"OH","Zipcode":"44702","Phone":"3304520029","Website":"http://georgescanton.com/index.html","Open":"Y","OnlineOrders":"N","OrderWebsite":null,"Delivery":"N","DeliveryWebsite":null,"DeliveryWebsite2":null,"DeliveryWebsite3":null,"CreatedBy":"doadmin@%","DateAdded":"2020-03-27T17:04:02.000Z","DateUpdated":"2020-04-06T20:34:43.000Z","UpdatedBy":"doadmin@%","Latitude":"40.802979","Longitude":"-81.375061"},{"RestrntID":87,"Name":"Grapes in a Glass","Address":"575 Market Ave N #1545","City":"Canton","State":"OH","Zipcode":"44702","Phone":"3304539463","Website":"https://50shadesofvine.com/","Open":"Y","OnlineOrders":"N","OrderWebsite":null,"Delivery":"N","DeliveryWebsite":null,"DeliveryWebsite2":null,"DeliveryWebsite3":null,"CreatedBy":"doadmin@%","DateAdded":"2020-03-27T17:04:02.000Z","DateUpdated":"2020-04-06T20:34:43.000Z","UpdatedBy":"doadmin@%","Latitude":"40.802795","Longitude":"-81.37326"},{"RestrntID":88,"Name":"H2 Huth and Harris Win Merchants","Address":"427 Tuscarawas St E","City":"Canton","State":"OH","Zipcode":"44702","Phone":"3308053212","Website":"https://www.h2winemerchants.com/","Open":"Y","OnlineOrders":"Y","OrderWebsite":"https://www.h2winemerchants.com/online-ordering","Delivery":"N","DeliveryWebsite":null,"DeliveryWebsite2":null,"DeliveryWebsite3":null,"CreatedBy":"doadmin@%","DateAdded":"2020-03-27T17:04:02.000Z","DateUpdated":"2020-04-06T20:34:43.000Z","UpdatedBy":"doadmin@%","Latitude":"40.797878","Longitude":"-81.371956"},{"RestrntID":89,"Name":"Lucca Downtown","Address":"228 4th St NW","City":"Canton","State":"OH","Zipcode":"44702","Phone":"3304562534","Website":"http://www.luccadowntown.com/","Open":"Y","OnlineOrders":"N","OrderWebsite":null,"Delivery":"N","DeliveryWebsite":null,"DeliveryWebsite2":null,"DeliveryWebsite3":null,"CreatedBy":"doadmin@%","DateAdded":"2020-03-27T17:04:02.000Z","DateUpdated":"2020-04-06T20:47:22.000Z","UpdatedBy":"doadmin@%","Latitude":"40.800926","Longitude":"-81.376007"},{"RestrntID":90,"Name":"Muskellunge Brewing Company","Address":"425 5th St NW","City":"Canton","State":"OH","Zipcode":"44702","Phone":"5138023417","Website":"http://muskellungebrewingcompany.com/","Open":"Y","OnlineOrders":"Y","OrderWebsite":"https://my-site-101873-109950.square.site/#HfaQUA","Delivery":"N","DeliveryWebsite":null,"DeliveryWebsite2":null,"DeliveryWebsite3":null,"CreatedBy":"doadmin@%","DateAdded":"2020-03-27T17:04:02.000Z","DateUpdated":"2020-04-06T20:47:22.000Z","UpdatedBy":"doadmin@%","Latitude":"40.801613","Longitude":"-81.37561"},{"RestrntID":91,"Name":"Napoli's Italian Eatery","Address":"221 Market Ave N","City":"Canton","State":"OH","Zipcode":"44702","Phone":"3304527456","Website":"https://www.facebook.com/Napolis-italian-eatery-145853452139360/","Open":"Y","OnlineOrders":"N","OrderWebsite":null,"Delivery":"N","DeliveryWebsite":null,"DeliveryWebsite2":null,"DeliveryWebsite3":null,"CreatedBy":"doadmin@%","DateAdded":"2020-03-27T17:04:02.000Z","DateUpdated":"2020-04-06T20:47:22.000Z","UpdatedBy":"doadmin@%","Latitude":"40.799446","Longitude":"-81.374397"},{"RestrntID":92,"Name":"Passion Blues Restaurant & Club","Address":"1212 Walnut Ave NE","City":"Canton","State":"OH","Zipcode":"44714","Phone":"2342140396","Website":"https://www.passionbluesclub.com/","Open":"Y","OnlineOrders":"N","OrderWebsite":null,"Delivery":"Y","DeliveryWebsite":null,"DeliveryWebsite2":null,"DeliveryWebsite3":null,"CreatedBy":"doadmin@%","DateAdded":"2020-03-27T17:04:02.000Z","DateUpdated":"2020-04-06T20:47:22.000Z","UpdatedBy":"doadmin@%","Latitude":"40.809677","Longitude":"-81.369553"},{"RestrntID":93,"Name":"Salumeria Di Torre italian Deli and Market","Address":"425 Tuscarawas St E","City":"Canton","State":"OH","Zipcode":"44702","Phone":"3304885763","Website":"https://www.salumeriaditorre.com/","Open":"Y","OnlineOrders":"Y","OrderWebsite":"https://www.foodbooking.com/ordering/restaurant/menu?restaurant_uid=c520d4e0-8df2-4ee6-a787-4b0f1770cef5&glfa_cid=1041783822.1527800689&glfa_t=1527894972947","Delivery":"Y","DeliveryWebsite":"https://www.ubereats.com/akron/food-delivery/salumeria-di-torre-tuscarawas-st-e/5Io4PUaSRC29_DJrq0WrHw","DeliveryWebsite2":"https://www.doordash.com/store/salumeria-di-torre-canton-342345/en-US/?utm_medium=website&utm_source=partner-link","DeliveryWebsite3":"https://www.grubhub.com/restaurant/salumeria-di-torre-425-tuscarawas-st-e-canton/1135460","CreatedBy":"doadmin@%","DateAdded":"2020-03-27T17:04:02.000Z","DateUpdated":"2020-04-06T20:47:22.000Z","UpdatedBy":"doadmin@%","Latitude":"40.797878","Longitude":"-81.371956"},{"RestrntID":94,"Name":"Sparta Steak House & Lounge","Address":"1101 12th St NW","City":"Canton","State":"OH","Zipcode":"44703","Phone":"3304546343","Website":"https://www.spartasteakhouseandlounge.com/","Open":"Y","OnlineOrders":"N","OrderWebsite":null,"Delivery":"N","DeliveryWebsite":null,"DeliveryWebsite2":null,"DeliveryWebsite3":null,"CreatedBy":"doadmin@%","DateAdded":"2020-03-27T17:04:02.000Z","DateUpdated":"2020-04-06T20:47:22.000Z","UpdatedBy":"doadmin@%","Latitude":"40.809425","Longitude":"-81.38121"},{"RestrntID":95,"Name":"Amish Door Restaurant & Bakery","Address":"1210 Winesburg St","City":"Wilmot","State":"OH","Zipcode":"44689","Phone":"3303595464","Website":"https://amishdoor.com/","Open":"Y","OnlineOrders":"Y","OrderWebsite":"https://amishdoortogo.com/","Delivery":"N","DeliveryWebsite":null,"DeliveryWebsite2":null,"DeliveryWebsite3":null,"CreatedBy":"doadmin@%","DateAdded":"2020-03-27T17:04:02.000Z","DateUpdated":"2020-04-06T20:47:22.000Z","UpdatedBy":"doadmin@%","Latitude":"40.656292","Longitude":"-81.635239"},{"RestrntID":96,"Name":"Anderson's in the Village","Address":"97 Canal St W","City":"Navarre","State":"OH","Zipcode":"44662","Phone":"3308790900","Website":"https://www.andersonsinthevillage.com/","Open":"Y","OnlineOrders":"N","OrderWebsite":null,"Delivery":"N","DeliveryWebsite":null,"DeliveryWebsite2":null,"DeliveryWebsite3":null,"CreatedBy":"doadmin@%","DateAdded":"2020-03-27T17:04:02.000Z","DateUpdated":"2020-04-06T20:47:22.000Z","UpdatedBy":"doadmin@%","Latitude":"40.719746","Longitude":"-81.525215"},{"RestrntID":97,"Name":"Main Street Deli","Address":"531 N Main St","City":"Navarre","State":"OH","Zipcode":"44662","Phone":"3308799959","Website":"http://mainstreetdeli.net/","Open":"Y","OnlineOrders":"N","OrderWebsite":null,"Delivery":"N","DeliveryWebsite":null,"DeliveryWebsite2":null,"DeliveryWebsite3":null,"CreatedBy":"doadmin@%","DateAdded":"2020-03-27T17:04:02.000Z","DateUpdated":"2020-04-06T20:47:22.000Z","UpdatedBy":"doadmin@%","Latitude":"40.726783","Longitude":"-81.522059"},{"RestrntID":98,"Name":"Expresso Pizza","Address":"123 Nassau St","City":"East Candon","State":"OH","Zipcode":"44730","Phone":"3304883100","Website":"https://www.expressopizzaoh.com/","Open":"Y","OnlineOrders":"N","OrderWebsite":null,"Delivery":"N","DeliveryWebsite":null,"DeliveryWebsite2":null,"DeliveryWebsite3":null,"CreatedBy":"doadmin@%","DateAdded":"2020-03-27T17:04:02.000Z","DateUpdated":"2020-04-06T20:50:05.000Z","UpdatedBy":"doadmin@%","Latitude":"40.787323","Longitude":"-81.291804"},{"RestrntID":99,"Name":"DeLuca's Pizza Pub","Address":"3700 Massillon Rd  suite 220","City":"Uniontown","State":"OH","Zipcode":"44685","Phone":"2342940640","Website":"https://www.delucaspizzapub.com","Open":"Y","OnlineOrders":"Y","OrderWebsite":"https://app.upserve.com/s/delucas-pizza-pub-uniontown","Delivery":"Y","DeliveryWebsite":"https://www.doordash.com/store/deluca-s-pizza-pub-uniontown-791311/en-US","DeliveryWebsite2":null,"DeliveryWebsite3":null,"CreatedBy":"doadmin@%","DateAdded":"2020-03-30T20:06:32.000Z","DateUpdated":"2020-04-06T21:24:27.000Z","UpdatedBy":"doadmin@%","Latitude":"40.957878","Longitude":"-81.465485"},{"RestrntID":100,"Name":"Arby's","Address":"1687 Sandy Knoll Dr","City":"Uniontown","State":"OH","Zipcode":"44685","Phone":"3308962525","Website":"https://arbys.com/","Open":"Y","OnlineOrders":"N","OrderWebsite":null,"Delivery":"Y","DeliveryWebsite":"https://www.doordash.com/store/arby-s-canton-800255/en-US","DeliveryWebsite2":null,"DeliveryWebsite3":null,"CreatedBy":"doadmin@%","DateAdded":"2020-03-30T20:06:32.000Z","DateUpdated":"2020-04-06T21:24:27.000Z","UpdatedBy":"doadmin@%","Latitude":"40.962837","Longitude":"-81.466461"},{"RestrntID":101,"Name":"Bonefish Grill","Address":"6341 Strip Avenue NW","City":"North Canton","State":"OH","Zipcode":"44720","Phone":"3309664876","Website":"www.bonefishgrill.com","Open":"Y","OnlineOrders":"Y","OrderWebsite":"https://www.ezcater.com/brand/pvt/bonefish-grill-1","Delivery":"Y","DeliveryWebsite":"https://www.doordash.com/business/bonefish-grill-212588/","DeliveryWebsite2":null,"DeliveryWebsite3":null,"CreatedBy":"doadmin@%","DateAdded":"2020-03-30T20:06:32.000Z","DateUpdated":"2020-04-06T21:24:27.000Z","UpdatedBy":"doadmin@%","Latitude":"40.879333","Longitude":"-81.434242"},{"RestrntID":102,"Name":"Buehler's Fresh Foods","Address":"7138 Fulton Dr","City":"Canton","State":"OH","Zipcode":"44718","Phone":"3306446646","Website":"https://www.buehlers.com/","Open":"Y","OnlineOrders":"N","OrderWebsite":null,"Delivery":"N","DeliveryWebsite":null,"DeliveryWebsite2":null,"DeliveryWebsite3":null,"CreatedBy":"doadmin@%","DateAdded":"2020-03-30T20:06:32.000Z","DateUpdated":"2020-04-06T21:24:27.000Z","UpdatedBy":"doadmin@%","Latitude":"40.860218","Longitude":"-81.473984"},{"RestrntID":103,"Name":"Eurogyro","Address":"3717 Cleveland Ave N.W.","City":"Canton","State":"OH","Zipcode":"44709","Phone":"3308990888","Website":"www.eurogyro.com","Open":"Y","OnlineOrders":"Y","OrderWebsite":"https://eurogyro.com/order-online/","Delivery":"N","DeliveryWebsite":null,"DeliveryWebsite2":null,"DeliveryWebsite3":null,"CreatedBy":"doadmin@%","DateAdded":"2020-03-30T20:06:32.000Z","DateUpdated":"2020-04-06T21:24:27.000Z","UpdatedBy":"doadmin@%","Latitude":"40.836918","Longitude":"-81.389633"},{"RestrntID":104,"Name":"Hungry Howie's Pizza","Address":"3939 Massillon Rd.","City":"Uniontown","State":"OH","Zipcode":"44685","Phone":"3308999993","Website":"www.hungryhowies.com/store/hungry-howies-873","Open":"Y","OnlineOrders":"Y","OrderWebsite":"https://hungryhowies.hungerrush.com/Account/LogOn?utm_source=Desktop_Button&utm_medium=Website&utm_campaign=Consumer_Website&_ga=2.34663073.1029741765.1585572545-226108521.1585572545","Delivery":"Y","DeliveryWebsite":"https://hungryhowies.hungerrush.com/order/menu/268?_ga=2.72934291.1029741765.1585572545-226108521.1585572545#groups","DeliveryWebsite2":null,"DeliveryWebsite3":null,"CreatedBy":"doadmin@%","DateAdded":"2020-03-30T20:06:32.000Z","DateUpdated":"2020-04-06T21:24:27.000Z","UpdatedBy":"doadmin@%","Latitude":"40.957878","Longitude":"-81.465485"},{"RestrntID":105,"Name":"Jerzee's Sports Grille","Address":"1019 East Turkeyfoot Lake Road","City":"Akron","State":"OH","Zipcode":"44312","Phone":"3308969464","Website":"www.jerzeesgrille.com/menu-green","Open":"Y","OnlineOrders":"N","OrderWebsite":null,"Delivery":"N","DeliveryWebsite":null,"DeliveryWebsite2":null,"DeliveryWebsite3":null,"CreatedBy":"doadmin@%","DateAdded":"2020-03-30T20:06:32.000Z","DateUpdated":"2020-04-06T21:24:27.000Z","UpdatedBy":"doadmin@%","Latitude":"40.974476","Longitude":"-81.485046"},{"RestrntID":106,"Name":"Kasai","Address":"3875 Massillon Rd Ste 300","City":"Uniontown","State":"OH","Zipcode":"44685","Phone":"3308999788","Website":"http://eatatkasaioh.com/uniontown/","Open":"Y","OnlineOrders":"Y","OrderWebsite":"http://eatatkasaioh.com/uniontown/#","Delivery":"Y","DeliveryWebsite":"https://www.doordash.com/store/kasai-japanese-restaurant-uniontown-300942/en-US","DeliveryWebsite2":null,"DeliveryWebsite3":null,"CreatedBy":"doadmin@%","DateAdded":"2020-03-30T20:06:32.000Z","DateUpdated":"2020-04-06T21:24:27.000Z","UpdatedBy":"doadmin@%","Latitude":"40.957878","Longitude":"-81.465485"},{"RestrntID":107,"Name":"Menches Brothers","Address":"3700 Massillon Rd Ste 130","City":"Uniontown","State":"OH","Zipcode":"44685","Phone":"3308962288","Website":"www.menchesbros.com","Open":"Y","OnlineOrders":"Y","OrderWebsite":"https://www.menchesbros.com/order-online/","Delivery":"Y","DeliveryWebsite":"https://www.doordash.com/store/menches-brothers-canton-586710/874347/en-US","DeliveryWebsite2":null,"DeliveryWebsite3":null,"CreatedBy":"doadmin@%","DateAdded":"2020-03-30T20:06:32.000Z","DateUpdated":"2020-04-06T21:24:27.000Z","UpdatedBy":"doadmin@%","Latitude":"40.957878","Longitude":"-81.465485"},{"RestrntID":108,"Name":"Mr. Hero","Address":"3046 West Tuscarawas","City":"Canton","State":"OH","Zipcode":"44708","Phone":"3306440792","Website":"www.mrhero.com","Open":"Y","OnlineOrders":"Y","OrderWebsite":"https://order.mrhero.com/#/","Delivery":"Y","DeliveryWebsite":"https://www.doordash.com/store/mr-hero-canton-511330/en-US","DeliveryWebsite2":"https://www.ubereats.com/","DeliveryWebsite3":"https://www.grubhub.com/food/mr_hero","CreatedBy":"doadmin@%","DateAdded":"2020-03-30T20:06:32.000Z","DateUpdated":"2020-04-06T21:24:27.000Z","UpdatedBy":"doadmin@%","Latitude":"40.797966","Longitude":"-81.412704"},{"RestrntID":109,"Name":"Pick's at PLX","Address":"530 Portage Lakes Dr","City":"Akron","State":"OH","Zipcode":"44319","Phone":"3307945157","Website":"picksatplx.com","Open":"Y","OnlineOrders":"N","OrderWebsite":null,"Delivery":"N","DeliveryWebsite":null,"DeliveryWebsite2":null,"DeliveryWebsite3":null,"CreatedBy":"doadmin@%","DateAdded":"2020-03-30T20:06:32.000Z","DateUpdated":"2020-04-06T21:28:30.000Z","UpdatedBy":"doadmin@%","Latitude":"40.996471","Longitude":"-81.536888"},{"RestrntID":110,"Name":"Romeo's Pizza Hartville","Address":"854 W. Maple","City":"Hartville","State":"OH","Zipcode":"44632","Phone":"3308779001","Website":"https://locations.romeospizza.com/romeos-pizza-45903ad81c65","Open":"Y","OnlineOrders":"Y","OrderWebsite":"https://romeospizza.hungerrush.com/order/ordertype","Delivery":"Y","DeliveryWebsite":"https://romeospizza.hungerrush.com/order/ordertype","DeliveryWebsite2":null,"DeliveryWebsite3":null,"CreatedBy":"doadmin@%","DateAdded":"2020-03-30T20:06:32.000Z","DateUpdated":"2020-04-06T21:28:31.000Z","UpdatedBy":"doadmin@%","Latitude":"40.967491","Longitude":"-81.344643"},{"RestrntID":111,"Name":"T-Bubbles","Address":"3700 Massillon Rd Suite 90","City":"Uniontown","State":"OH","Zipcode":"44685","Phone":"3305634040","Website":"https://www.facebook.com/TBubblesGreen/","Open":"Y","OnlineOrders":"N","OrderWebsite":null,"Delivery":"N","DeliveryWebsite":null,"DeliveryWebsite2":null,"DeliveryWebsite3":null,"CreatedBy":"doadmin@%","DateAdded":"2020-03-30T20:06:32.000Z","DateUpdated":"2020-04-06T21:28:31.000Z","UpdatedBy":"doadmin@%","Latitude":"40.957878","Longitude":"-81.465485"},{"RestrntID":112,"Name":"The Twisted Olive","Address":"5430 Massillon Rd","City":"Green","State":"OH","Zipcode":"44720","Phone":"3308990550","Website":"www.thetwistedolive.com","Open":"Y","OnlineOrders":"Y","OrderWebsite":"https://thetwistedolive.ez-chow.com/thetwistedolive/Massillon-Rd/menu.htm","Delivery":"Y","DeliveryWebsite":"https://thetwistedolive.ez-chow.com/thetwistedolive/Massillon-Rd/menu.htm","DeliveryWebsite2":null,"DeliveryWebsite3":null,"CreatedBy":"doadmin@%","DateAdded":"2020-03-30T20:06:32.000Z","DateUpdated":"2020-04-06T21:28:31.000Z","UpdatedBy":"doadmin@%","Latitude":"40.911179","Longitude":"-81.462547"},{"RestrntID":113,"Name":"Tom + Chee","Address":"3875 Massillon Rd","City":"Uniontown","State":"OH","Zipcode":"44685","Phone":"3308990979","Website":"www.tomandchee.com","Open":"Y","OnlineOrders":"Y","OrderWebsite":"https://www.tomandchee.com/order","Delivery":"Y","DeliveryWebsite":"https://www.doordash.com/business/tom-chee-14142/","DeliveryWebsite2":null,"DeliveryWebsite3":null,"CreatedBy":"doadmin@%","DateAdded":"2020-03-30T20:06:32.000Z","DateUpdated":"2020-04-06T21:28:31.000Z","UpdatedBy":"doadmin@%","Latitude":"40.957878","Longitude":"-81.465485"},{"RestrntID":114,"Name":"Whitehouse Chicken","Address":"4195 Massillon Rd","City":"Uniontown","State":"OH","Zipcode":"44685","Phone":"3308965644","Website":"www.whitehousechicken.com","Open":"Y","OnlineOrders":"Y","OrderWebsite":"https://direct.chownow.com/order/16143/locations","Delivery":"N","DeliveryWebsite":null,"DeliveryWebsite2":null,"DeliveryWebsite3":null,"CreatedBy":"doadmin@%","DateAdded":"2020-03-30T20:06:32.000Z","DateUpdated":"2020-04-06T21:28:31.000Z","UpdatedBy":"doadmin@%","Latitude":"40.957878","Longitude":"-81.465485"},{"RestrntID":115,"Name":"Romeo's Pizza Jackson","Address":"4887 Portage St. NW","City":"Jackson","State":"OH","Zipcode":"44720","Phone":"3304970000","Website":"https://locations.romeospizza.com/romeos-pizza-3f5e6a4419d4","Open":"Y","OnlineOrders":"Y","OrderWebsite":"https://romeospizza.hungerrush.com/Order/OrderType","Delivery":"Y","DeliveryWebsite":"https://romeospizza.hungerrush.com/Order/OrderType","DeliveryWebsite2":null,"DeliveryWebsite3":null,"CreatedBy":"doadmin@%","DateAdded":"2020-03-30T20:06:32.000Z","DateUpdated":"2020-04-06T21:37:15.000Z","UpdatedBy":"doadmin@%","Latitude":"40.878914","Longitude":"-81.481575"},{"RestrntID":116,"Name":"Pancho's Southwestern Grille","Address":"4335 Massillon Rd","City":"Green","State":"OH","Zipcode":"44232","Phone":"3308961991","Website":"www.panchosgrille.com","Open":"Y","OnlineOrders":"Y","OrderWebsite":"","Delivery":"N","DeliveryWebsite":"","DeliveryWebsite2":"","DeliveryWebsite3":"","CreatedBy":"doadmin@%","DateAdded":"2020-03-30T20:34:55.000Z","DateUpdated":"2020-04-06T21:37:15.000Z","UpdatedBy":"doadmin@%","Latitude":"40.934776","Longitude":"-81.464706"},{"RestrntID":117,"Name":"Hot Head Burritos","Address":"3875 Massillon Rd Ste 310 Ste 310","City":"Green","State":"OH","Zipcode":"44685","Phone":"3305634201","Website":"www.hotheadburritos.com","Open":"Y","OnlineOrders":"Y","OrderWebsite":"https://hotheadburritos.brinkpos.net/order/default.aspx?edit=1","Delivery":"Y","DeliveryWebsite":"https://www.doordash.com/store/hot-head-burritos-uniontown-277553/en-US","DeliveryWebsite2":"","DeliveryWebsite3":"","CreatedBy":"doadmin@%","DateAdded":"2020-03-30T20:34:55.000Z","DateUpdated":"2020-04-06T21:37:15.000Z","UpdatedBy":"doadmin@%","Latitude":"40.957878","Longitude":"-81.465485"},{"RestrntID":118,"Name":"El Fogon Mexican Grill","Address":"1080 Interstate Pkwy","City":"Green","State":"OH","Zipcode":"44312","Phone":"3306447700","Website":"https://www.facebook.com/pages/El-Fogan-Mexican-Grill/123712141079212","Open":"Y","OnlineOrders":"Y","OrderWebsite":"","Delivery":"N","DeliveryWebsite":"","DeliveryWebsite2":"","DeliveryWebsite3":"","CreatedBy":"doadmin@%","DateAdded":"2020-03-30T20:34:55.000Z","DateUpdated":"2020-04-06T21:37:15.000Z","UpdatedBy":"doadmin@%","Latitude":"40.979008","Longitude":"-81.489334"},{"RestrntID":119,"Name":"Nectar Smoothie Cafe","Address":"3939 Massillon Rd","City":"Uniontown","State":"OH","Zipcode":"44685","Phone":"3308993077","Website":"http://nectarsmoothiecafe.com/","Open":"Y","OnlineOrders":"Y","OrderWebsite":"https://nectarsmoothie.revelup.com/weborder/","Delivery":"N","DeliveryWebsite":null,"DeliveryWebsite2":null,"DeliveryWebsite3":null,"CreatedBy":"doadmin@%","DateAdded":"2020-03-30T22:35:24.000Z","DateUpdated":"2020-04-06T21:37:15.000Z","UpdatedBy":"doadmin@%","Latitude":"40.957878","Longitude":"-81.465485"},{"RestrntID":120,"Name":"Zeppe's","Address":"3333 Massillon Rd","City":"Akron","State":"OH","Zipcode":"44312","Phone":"3308999921","Website":"https://green.zeppes.com/","Open":"Y","OnlineOrders":"Y","OrderWebsite":"https://green.zeppes.com/findyourstore","Delivery":"Y","DeliveryWebsite":"https://green.zeppes.com/findyourstore","DeliveryWebsite2":null,"DeliveryWebsite3":null,"CreatedBy":"doadmin@%","DateAdded":"2020-03-30T22:35:24.000Z","DateUpdated":"2020-04-06T21:37:16.000Z","UpdatedBy":"doadmin@%","Latitude":"40.97876","Longitude":"-81.464462"},{"RestrntID":121,"Name":"35° Brix","Address":"3875 Massillon Road","City":"Green","State":"OH","Zipcode":"44685","Phone":"3308999200","Website":"http://www.35brix.com","Open":"Y","OnlineOrders":"N","OrderWebsite":null,"Delivery":"N","DeliveryWebsite":null,"DeliveryWebsite2":null,"DeliveryWebsite3":null,"CreatedBy":"doadmin@%","DateAdded":"2020-03-30T22:35:24.000Z","DateUpdated":"2020-04-06T21:37:16.000Z","UpdatedBy":"doadmin@%","Latitude":"40.957878","Longitude":"-81.465485"},{"RestrntID":122,"Name":"The Town Tavern","Address":"1840 Town Park Blvd","City":"Uniontown","State":"OH","Zipcode":"44685","Phone":"3308964433","Website":"https://towntavernohio.com","Open":"Y","OnlineOrders":"Y","OrderWebsite":"https://towntavernohio.com/order-online/","Delivery":"Y","DeliveryWebsite":"https://www.doordash.com/store/the-town-tavern-akron-418180/en-US","DeliveryWebsite2":null,"DeliveryWebsite3":null,"CreatedBy":"doadmin@%","DateAdded":"2020-03-30T22:35:24.000Z","DateUpdated":"2020-04-06T21:37:16.000Z","UpdatedBy":"doadmin@%","Latitude":"40.950657","Longitude":"-81.465019"},{"RestrntID":123,"Name":"Hot Heads","Address":"3875 Massillon Road Ste 310","City":"Green","State":"OH","Zipcode":"44685","Phone":"3305634201","Website":"https://hotheadburritos.com/green-oh","Open":"Y","OnlineOrders":"Y","OrderWebsite":"https://hotheadburritos.brinkpos.net/order/default.aspx?edit=1","Delivery":"Y","DeliveryWebsite":"https://www.doordash.com/store/277553/en-US/?utm_source=partner-link&utm_medium=website&utm_campaign=277553","DeliveryWebsite2":"https://www.ubereats.com/akron/food-delivery/hot-head-burritos-massillon-rd/nhTV2xNjR_m-4y6Q5v1JCg","DeliveryWebsite3":null,"CreatedBy":"doadmin@%","DateAdded":"2020-03-30T22:35:24.000Z","DateUpdated":"2020-04-06T21:37:16.000Z","UpdatedBy":"doadmin@%","Latitude":"40.957878","Longitude":"-81.465485"}]}